TimeUS,GyrX,GyrY,GyrZ,AccX,AccY,AccZ,Roll,Pitch,Yaw,C1,C2,C3,C4,TimeSec,dot_GyrX,dot_GyrY,dot_GyrZ
65639567,0.0009265571716241539,0.0008897613734006882,0.0009074994595721364,-0.000325987086398527,-0.001597455469891429,-9.817176818847656,0.0011994503042688596,0.000976926485417345,6.189131512225694,1000.0,1000.0,1000.0,1000.0,0.0,0.00045604590114493783,0.0013386626506508255,-0.0010454829027760728
65679551,0.000944791710935533,0.0009432864608243108,0.0008656968711875379,-0.0006157669122330844,0.00025809730868786573,-9.817550659179688,0.0011994503042688596,0.000976926485417345,6.189131512225694,1000.0,1000.0,1000.0,1000.0,0.039984,0.000660028202649654,-0.00044448050593367747,0.0004001165262791286
65719535,0.0009793383069336414,0.0008542171563021839,0.0009394959779456258,-0.0006332627963274717,-0.001057899440638721,-9.817716598510742,0.0011994503042688596,0.000976926485417345,6.189131512225694,1000.0,1000.0,1000.0,1000.0,0.079968,-0.0007272944162350428,0.00033289908111712625,0.0007068051274313567
65759519,0.0008866314310580492,0.0009699077345430851,0.0009222186636179686,-0.0008125127642415464,-0.0010695398086681962,-9.816869735717773,0.0011979179463447634,0.0009752047933845008,6.189094760602651,1000.0,1000.0,1000.0,1000.0,0.119952,-0.00042566899647179454,0.0004612153540236811,0.001191131618930823
65799503,0.0009452984086237848,0.0008910996257327497,0.0010347483912482858,-0.0009174885926768184,-0.00327641936019063,-9.816808700561523,0.0011979179463447634,0.0009752047933845008,6.189094760602651,1000.0,1000.0,1000.0,1000.0,0.159936,0.0001769165544133009,3.33444996304267e-05,-0.00030646659564279033
65839487,0.000900779094081372,0.000972574227489531,0.0008977111428976059,-0.000641390448436141,-0.0005558202974498272,-9.817314147949219,0.0011984500584141288,0.0009805991250006999,6.1890596068762616,1000.0,1000.0,1000.0,1000.0,0.19992,-0.0008534757968164282,-0.0009268759134445012,-0.0022433722238367534
65879471,0.0008770476561039686,0.0008169792126864195,0.0008553504012525082,-0.0015109619125723839,-0.0007864624494686723,-9.817789077758789,0.0011984500584141288,0.0009805991250006999,6.1890596068762616,1000.0,1000.0,1000.0,1000.0,0.239904,0.0008054723825809563,-0.0008162603945657317,0.0001520613998863378
65919455,0.0009651911095716059,0.0009072995162568986,0.0009098711889237165,-0.001139251864515245,-0.0015656676841899753,-9.817105293273926,0.0011984500584141288,0.0009805991250006999,6.1890596068762616,1000.0,1000.0,1000.0,1000.0,0.279888,0.0008651423683090371,0.0015700105886564258,0.0004255896567979308
65959439,0.0009462313610129058,0.0009425298194400966,0.0008893839549273252,0.0005792024894617498,-0.0009218831546604633,-9.817265510559082,0.0011949182490778713,0.000977803326004767,6.189026051046527,1000.0,1000.0,1000.0,1000.0,0.319872,-0.0023858852031565774,0.0005239686687287266,0.0004068487523669218
65999423,0.0007743966416455805,0.0009492002427577972,0.0009424060699529946,7.672732317587361e-05,0.001127013354562223,-9.81670093536377,0.0011949182490778713,0.000977803326004767,6.189026051046527,1000.0,1000.0,1000.0,1000.0,0.359856,-0.001515910393610988,0.0003318400056540761,0.00024480875074660464
66039407,0.0008250070386566222,0.0009690664010122418,0.0009089608211070299,-0.001626278623007238,-0.0003052534884773195,-9.816926002502441,0.0011983215816974784,0.0009842211801278028,6.188994093113446,1000.0,1000.0,1000.0,1000.0,0.39984,0.001826247163987136,-0.0002874876721901849,-0.0007034160859495982
66079391,0.0009204379748553038,0.0009262104285880923,0.000886155292391777,-0.001318509690463543,-0.002578877843916416,-9.817815780639648,0.0011983215816974784,0.0009842211801278028,6.188994093113446,1000.0,1000.0,1000.0,1000.0,0.439824,0.0017441247784424144,-0.0014850217844357711,0.0002490508756941307
66119375,0.0009644812089391053,0.0008503121789544821,0.0009288769215345383,-0.00014007359277457,-0.00029448000714182854,-9.817253112792969,0.0011983215816974784,0.0009842211801278028,6.188994093113446,1000.0,1000.0,1000.0,1000.0,0.479808,-0.00031225839183487286,0.0006686733155531824,0.0005849372047152801
66159359,0.0008954672957770526,0.0009796828962862492,0.0009329315507784486,-0.0010844897478818893,-0.0019452740671113133,-9.817447662353516,0.0011986162459079336,0.000979374239947575,6.188961069915929,1000.0,1000.0,1000.0,1000.0,0.519792,-0.0015533004887215707,-0.00031496321961541583,0.000169838582040319
66199343,0.0008402668754570186,0.0008251252002082765,0.0009424585732631385,-0.0021396041847765446,0.000777431414462626,-9.81556510925293,0.0011986162459079336,0.000979374239947575,6.188961069915929,1000.0,1000.0,1000.0,1000.0,0.559776,0.00031225693606104325,-0.000519346586810944,0.0009502156074119722
66239327,0.0009204378584399819,0.0009381517884321511,0.0010089183924719691,-0.0004250119091011584,-0.0013805875787511468,-9.817588806152344,0.0012029657289226294,0.000984210452061888,6.1889360362016825,1000.0,1000.0,1000.0,1000.0,0.59976,0.0009057984920125481,0.0011374004625518998,7.02825769660631e-05
66279311,0.0009127017692662776,0.0009160808403976262,0.0009480789303779602,-0.0010910232085734606,-0.0012459077406674623,-9.81705379486084,0.0012029657289226294,0.000984210452061888,6.1889360362016825,1000.0,1000.0,1000.0,1000.0,0.639744,-0.000310536211391179,-0.00017139698792787046,-0.00125394098092841
66319295,0.0008956048986874521,0.0009244455141015351,0.000908643240109086,-0.0014075618237257004,-0.0002703389327507466,-9.817195892333984,0.0012029657289226294,0.000984210452061888,6.1889360362016825,1000.0,1000.0,1000.0,1000.0,0.679728,0.0004722049906842399,-3.813253976509001e-05,-0.0009089174874483928
66359279,0.0009504630579613149,0.0009130314574576914,0.0008753946167416871,-0.0012744858395308256,-0.0016963864909484982,-9.817218780517578,0.001200008553807908,0.000984129764002494,6.188905676165255,1000.0,1000.0,1000.0,1000.0,0.719712,0.0012927220679358198,-0.00023672411076854256,0.00012935715119670108
66399263,0.0009989812970161438,0.0009055151604115963,0.0009189876727759838,-0.0013184896670281887,-0.0003559720062185079,-9.817708969116211,0.001200008553807908,0.000984129764002494,6.188905676165255,1000.0,1000.0,1000.0,1000.0,0.759696,0.0007937905254631027,0.0018387857440053407,0.0009745925402349989
66439247,0.0010139408987015486,0.00106007547583431,0.0009533308329991996,-0.0016800655284896493,-0.0010744711617007852,-9.814790725708008,0.001205717185246115,0.0009864913689125,6.188874250864393,1000.0,1000.0,1000.0,1000.0,0.79968,-0.0005021153198441018,0.0003780557296234107,0.00015028681158468261
66479231,0.0009588281391188502,0.0009357475209981203,0.0009310058085247874,-0.001638932852074504,-0.0010631310287863016,-9.817789077758789,0.001205717185246115,0.0009864913689125,6.188874250864393,1000.0,1000.0,1000.0,1000.0,0.839664,-0.0013815686728122552,-0.0022440309614959013,-0.00023267997106221974
66519215,0.0009034596150740981,0.0008806248079054058,0.0009347238810732961,-0.0008124556625261903,-0.0016088011907413602,-9.818490028381348,0.001205717185246115,0.0009864913689125,6.188874250864393,1000.0,1000.0,1000.0,1000.0,0.879648,-5.6916389524154856e-05,-9.8548609582267e-06,0.000421485830364483
66559199,0.0009542766492813826,0.0009349594474770129,0.0009647111874073744,-0.0006676161428913474,-0.0003065063792746514,-9.817420959472656,0.0012033821079172793,0.0009833077990976896,6.188841227666876,1000.0,1000.0,1000.0,1000.0,0.919632,0.0012999012165901512,8.935030262243598e-05,-0.000177006084503991
66599183,0.0010074101155623794,0.0008877699729055166,0.0009205690585076809,-0.00117713981308043,-0.0010048442054539919,-9.81691837310791,0.0012033821079172793,0.0009833077990976896,6.188841227666876,1000.0,1000.0,1000.0,1000.0,0.959616,0.0031061205720784597,0.003149068083794112,0.00024962736213175046
66639167,0.001202666899189353,0.0011867841240018606,0.0009846733883023262,0.0009934580884873867,0.0008300348417833447,-9.819112777709961,0.0012082535601026577,0.000986957617159008,6.18881033499823,1000.0,1000.0,1000.0,1000.0,0.9996,-0.0003443079806414069,0.000863124665777374,-0.000460346984932674
66679151,0.0009798764949664474,0.0009567923261784017,0.0008837560308165848,-0.0012513287365436554,-0.0008504509460180998,-9.81716537475586,0.0012082535601026577,0.000986957617159008,6.18881033499823,1000.0,1000.0,1000.0,1000.0,1.039584,-0.004888641385349623,-0.002346660833017211,-0.0005483790843498985
66719135,0.000811732024885714,0.0009991263505071402,0.0009408206096850336,-0.0011852483730763197,-0.0009935235138982534,-9.818419456481934,0.0012082535601026577,0.000986957617159008,6.18881033499823,1000.0,1000.0,1000.0,1000.0,1.079568,-0.0009638707659595982,-0.0008854838960687395,0.0017587283736418304
66759119,0.0009027976775541902,0.0008859819499775767,0.0010243980213999748,-0.0018922246526926756,-0.0020647807978093624,-9.81701374053955,0.0012043335898360348,0.0009844628541944977,6.18877837706515,1000.0,1000.0,1000.0,1000.0,1.119552,0.0013219401766383938,-0.000447031749574894,-0.0005732276878946327
66799103,0.0009174449369311333,0.0009633781155571342,0.000894980737939477,-0.0008317151223309338,-0.0006540425820276141,-9.817316055297852,0.0012043335898360348,0.0009844628541944977,6.18877837706515,1000.0,1000.0,1000.0,1000.0,1.159536,0.002996161607198077,0.00018198774255837047,-0.0038313492452453756
66839087,0.0011423947289586067,0.0009005351457744837,0.000718012684956193,-0.0010227658785879612,-0.0035048569552600384,-9.818541526794434,0.0012055928697186679,0.0009861154964940005,6.188749082293159,1000.0,1000.0,1000.0,1000.0,1.19952,0.0007020600326247475,-0.0010793296443786654,-0.00034465518270042697
66879071,0.000973587273620069,0.0008770662825554609,0.0008674193522892892,-0.002320843283087015,-0.0013417841400951147,-9.816983222961426,0.0012055928697186679,0.0009861154964940005,6.188749082293159,1000.0,1000.0,1000.0,1000.0,1.239504,-0.0018860918425751012,0.0013318088674480286,0.0035883500213723975
66919055,0.000991567736491561,0.0010070372372865677,0.001004965859465301,-0.00010751670924946666,-0.0009821373969316483,-9.816965103149414,0.0012055928697186679,0.0009861154964940005,6.188749082293159,1000.0,1000.0,1000.0,1000.0,1.279488,-0.0005707870830646486,0.0019025246175948893,0.0008978601573046297
66959039,0.0009279425721615553,0.0010292073711752892,0.0009392194333486259,-0.0012111105024814606,-0.000581898377276957,-9.816072463989258,0.0012054100374680502,0.0009869100235574957,6.188720852785604,1000.0,1000.0,1000.0,1000.0,1.319472,-0.0005489366457276969,-0.0005700555567138815,0.0004541941568301632
66999023,0.0009476703708060086,0.000961451034527272,0.0010412868577986956,-0.00133711367379874,-0.0011888234876096249,-9.817532539367676,0.0012054100374680502,0.0009869100235574957,6.188720852785604,1000.0,1000.0,1000.0,1000.0,1.359456,-0.00017818252924370684,-0.0014082490769071563,-0.0005315750115035319
67039840,0.0009124147472903132,0.0009159014443866909,0.0008910757023841143,-0.001093234634026885,-0.00016138600767590106,-9.818735122680664,0.0012096658937256729,0.0009901807182712493,6.188691558013613,1000.0,1000.0,1000.0,1000.0,1.400273,0.001174222671408636,-0.002109478132817229,-0.0010028017371803873
67079824,0.0010391881223767996,0.0007926414255052805,0.0009558445890434086,-0.0003995211736764759,0.001210695132613182,-9.81466293334961,0.0012096658937256729,0.0009901807182712493,6.188691558013613,1000.0,1000.0,1000.0,1000.0,1.440257,0.0010366550902565982,0.0007003240223296264,0.000642083606504959
67119808,0.0009953139815479517,0.000971904955804348,0.0009424218442291021,-0.00024057397968135774,-0.0008682808256708086,-9.818117141723633,0.0012096658937256729,0.0009901807182712493,6.188691558013613,1000.0,1000.0,1000.0,1000.0,1.480241,-0.0017802847446646442,0.0016313110410767617,-0.0013914264453181464
67159792,0.0008968223119154572,0.0009230941068381071,0.0008445749990642071,-0.001299911760725081,-0.00046344264410436153,-9.818207740783691,0.0012072457720924959,0.0009868961745996788,6.188673981150418,1000.0,1000.0,1000.0,1000.0,1.520225,-0.0009957958861034639,0.0003196471719210652,-0.0005126274626876485
67199776,0.0009156821761280298,0.0009974665008485317,0.0009014280512928963,-0.0005433894693851471,-0.0003454489924479276,-9.816972732543945,0.0012072457720924959,0.0009868961745996788,6.188673981150418,1000.0,1000.0,1000.0,1000.0,1.560209,0.00017369856635684848,0.0007306761788476376,0.0014376407135136358
67239760,0.0009107126388698816,0.000981524819508195,0.0009595402516424656,-0.0005452376208268106,-0.000659308978356421,-9.81804084777832,0.001205936167827936,0.0009897702559674977,6.188648414803954,1000.0,1000.0,1000.0,1000.0,1.600193,0.0005445372972062729,-0.0012857052380637994,0.0009731891742605966
67279744,0.0009592277347110212,0.0008946512243710458,0.0009792520431801677,-0.0002455906942486763,-0.0008926575537770987,-9.817334175109863,0.001205936167827936,0.0009897702559674977,6.188648414803954,1000.0,1000.0,1000.0,1000.0,1.640177,0.0008415624716592296,-0.0004331240142673616,-0.0008873633000863277
67319728,0.000978010706603527,0.0009468887583352625,0.000888579583261162,-0.0009326442959718406,-0.0003938301815651357,-9.817804336547852,0.001205936167827936,0.0009897702559674977,6.188648414803954,1000.0,1000.0,1000.0,1000.0,1.680161,-0.001901472821001001,0.0005186638288835685,-0.0019053095129362135
67359712,0.0008071707561612129,0.0009361277334392071,0.0008268882520496845,-0.0004111601156182587,-0.00026865076506510377,-9.81849193572998,0.001204526695022498,0.0009865537867505489,6.188620185296399,1000.0,1000.0,1000.0,1000.0,1.720145,0.00016327231416941694,-7.211248467334577e-05,0.0014780755595946177
67399696,0.000991067267023027,0.0009411220671609044,0.0010067783296108246,-0.0011616724077612162,0.00021885122987441719,-9.817643165588379,0.001204526695022498,0.0009865537867505489,6.188620185296399,1000.0,1000.0,1000.0,1000.0,1.760129,0.0014408950959158978,0.0003079893350714496,0.0011773381618691205
67439680,0.0009223962551914155,0.0009607570245862007,0.0009210376301780343,-0.0012006927281618118,-0.0006906760390847921,-9.817079544067383,0.001209802562783567,0.0009906511277069604,6.188589825259972,1000.0,1000.0,1000.0,1000.0,1.800113,-0.0005440598033892574,-0.0008152995838363684,-0.001352544909916301
67479664,0.0009475598926655948,0.0008759241900406778,0.0008986180182546377,-0.0002860068343579769,-0.0009192740544676781,-9.81749439239502,0.001209802562783567,0.0009906511277069604,6.188589825259972,1000.0,1000.0,1000.0,1000.0,1.840097,0.0005256537269396917,0.001310254680085986,-6.761632719207156e-05
67519648,0.0009644317324273288,0.0010655354708433151,0.0009156304877251387,-0.0004793991975020617,-0.0015985275385901332,-9.818387031555176,0.001209802562783567,0.0009906511277069604,6.188589825259972,1000.0,1000.0,1000.0,1000.0,1.880081,-0.0009324835542467869,0.002652247413378354,0.0032309648243948087
67559632,0.0008729910477995872,0.0010880191111937165,0.0011569918133318424,-0.0025002495385706425,0.0006563927163369954,-9.817975044250488,0.0012079621468212677,0.000986559248311378,6.188557867326891,1000.0,1000.0,1000.0,1000.0,1.920065,-4.089050329051519e-05,-0.0018973151309357554,-0.00033023210345622424
67599616,0.000961161800660193,0.0009138109744526446,0.0008892224868759513,-0.0006918992730788887,-4.157556395512074e-05,-9.818009376525879,0.0012079621468212677,0.000986559248311378,6.188557867326891,1000.0,1000.0,1000.0,1000.0,1.960049,-3.4902177631050343e-05,-0.0016238516559597127,-0.002080575947710543
67639600,0.0008701999904587865,0.0009581629419699311,0.0009906123159453273,-0.000289153162157163,-0.0011367483530193567,-9.817501068115234,0.0012086086915937225,0.0009881302922913485,6.188527507290464,1000.0,1000.0,1000.0,1000.0,2.000033,-0.0003656525365715972,-8.303297207687237e-05,0.0009877272596375466
67679584,0.0009319212986156344,0.0009071709937416017,0.0009682090603746474,-0.0013130714651197195,-0.0015410006744787097,-9.8175630569458,0.0012086086915937225,0.0009881302922913485,6.188527507290464,1000.0,1000.0,1000.0,1000.0,2.040017,0.0008162698570956407,-0.0004918710393857217,-0.0005445693242305868
67719568,0.0009354754583910108,0.0009188289986923337,0.0009470641962252557,-0.00029425747925415635,-0.0013657452072948217,-9.816741943359375,0.0012086086915937225,0.0009881302922913485,6.188527507290464,1000.0,1000.0,1000.0,1000.0,2.080001,0.0007088322924929391,0.0035139417813654598,-0.003335985804435844
67759552,0.000988605199381709,0.0011881738901138306,0.0007014369475655258,-0.0002112287620548159,-0.0023904249537736177,-9.818059921264648,0.0012065366794448298,0.0009840291802572217,6.188499810415127,1000.0,1000.0,1000.0,1000.0,2.119985,0.0031083464502681506,0.0007083562544498156,-0.0013425976073197805
67799536,0.0011840437073260546,0.000975474831648171,0.0008396993507631123,-0.0006443500751629472,-0.0008780257776379585,-9.81598949432373,0.0012065366794448298,0.0009840291802572217,6.188499810415127,1000.0,1000.0,1000.0,1000.0,2.159969,-5.353171536389735e-05,-0.0031857615911259057,0.0028029185492547577
67839520,0.000984324375167489,0.000933414907194674,0.0009255807381123304,-0.0013356065610423684,-0.000929326459299773,-9.817971229553223,0.001208793604438942,0.0009872799792850972,6.188469983010918,1000.0,1000.0,1000.0,1000.0,2.199953,-0.004091603756353418,0.00021114689242072472,0.0019215275613157258
67879504,0.0008568463381379843,0.0009923598263412714,0.0009933600667864084,-0.002097842050716281,-0.0021696211770176888,-9.817708015441895,0.001208793604438942,0.0009872799792850972,6.188469983010918,1000.0,1000.0,1000.0,1000.0,2.239937,6.401619850462253e-05,0.0005328270524986925,0.0007502505137976789
67919488,0.0009894436225295067,0.0009760240209288895,0.0009855767711997032,-0.0007214657380245626,-0.000498030916787684,-9.816047668457031,0.001208793604438942,0.0009872799792850972,6.188469983010918,1000.0,1000.0,1000.0,1000.0,2.279921,0.0006876449601366224,-0.0008186704281452194,-0.0009603113989394545
67959472,0.0009118359303101897,0.0009268923895433545,0.0009165658848360181,-0.000462508003693074,-0.000789405545219779,-9.818378448486328,0.0012059429297603913,0.0009842500483779003,6.1884428187678,1000.0,1000.0,1000.0,1000.0,2.319905,-0.0006121725494581676,4.70891882687445e-05,-0.0004085585587330406
67999456,0.0009404894080944359,0.0009797896491363645,0.0009529051603749394,-0.0015897615812718868,-0.0010852040722966194,-9.817222595214844,0.0012059429297603913,0.0009842500483779003,6.1884428187678,1000.0,1000.0,1000.0,1000.0,2.359889,0.0003943975187786653,-0.002020957641953489,-0.00019857046228288246
68039440,0.000943375111091882,0.0007652804488316178,0.0009006866021081805,-0.0009355268557555974,0.0009808891918510199,-9.817848205566406,0.0012093262366569576,0.0009879796442384746,6.188409262938064,1000.0,1000.0,1000.0,1000.0,2.399873,-6.960200269942422e-05,-0.00085490827826748,0.0013308873626121393
68079424,0.0009349234751425683,0.0009114243439398706,0.001059333560988307,-0.0017400162760168314,-0.0007168893935158849,-9.817368507385254,0.0012093262366569576,0.0009879796442384746,6.188409262938064,1000.0,1000.0,1000.0,1000.0,2.439857,0.00017033791246482202,0.002426667251296581,0.0013262769268850248
68119408,0.0009569966932758689,0.000959336175583303,0.0010067463153973222,-0.001408862299285829,-0.0014923593262210488,-9.81709098815918,0.0012093262366569576,0.0009879796442384746,6.188409262938064,1000.0,1000.0,1000.0,1000.0,2.479841,0.0010860938974907725,0.0008896707016106346,-0.0010416454829539467
68159392,0.0010217762319371104,0.0009825695306062698,0.0009760352550074458,-0.0013263373402878642,-0.0014585483586415648,-9.8178071975708,0.0012059698474530497,0.0009833296453410068,6.188383163959382,1000.0,1000.0,1000.0,1000.0,2.519825,-0.00035360746388258396,-0.000589059956208551,-0.0004324085014287514
68199376,0.0009287194116041064,0.0009122302290052176,0.0009721674723550677,-0.0010081824148073792,-0.0013943853555247188,-9.818193435668945,0.0012059698474530497,0.0009833296453410068,6.188383163959382,1000.0,1000.0,1000.0,1000.0,2.559809,0.00023046792272393354,-0.0028637691675608926,-0.0006438480043897809
68239360,0.001040206290781498,0.0007535596378147602,0.0009245480177924037,-0.00011141881986986846,-0.0016733234515413642,-9.815993309020996,0.0012083400348157876,0.0009847507564724974,6.188356532348481,1000.0,1000.0,1000.0,1000.0,2.599793,-0.00020468107294425476,0.0004549438803538343,-0.0004173914664609441
68279344,0.0009123514755629003,0.000948611181229353,0.000938789511565119,-0.0008207258651964366,-0.0010101727675646544,-9.817057609558105,0.0012083400348157876,0.0009847507564724974,6.188356532348481,1000.0,1000.0,1000.0,1000.0,2.639777,-0.0014684951120037953,0.0030188294615419112,0.0002174198218644046
68319328,0.0009227736736647785,0.000994969392195344,0.0009419346461072564,-0.0015664406819269061,-0.00031048565870150924,-9.817164421081543,0.0012083400348157876,0.0009847507564724974,6.188356532348481,1000.0,1000.0,1000.0,1000.0,2.679761,0.0006528607001859837,0.00023223086483493277,0.00021045903928492912
68359312,0.000964559440035373,0.0009671822190284729,0.0009556195000186563,-0.0015919879078865051,-0.002002387074753642,-9.816664695739746,0.0012033122779609624,0.000982026152823089,6.188326704944272,1000.0,1000.0,1000.0,1000.0,2.719745,-0.0005009652585165336,-6.216445418984716e-05,0.0011282014277051462
68399296,0.0008827124838717282,0.0009899982251226902,0.0010321546578779817,-0.0005147408228367567,-0.0005788026028312743,-9.818687438964844,0.0012033122779609624,0.000982026152823089,6.188326704944272,1000.0,1000.0,1000.0,1000.0,2.759729,-0.0002907602517653544,3.383072809043895e-05,0.00016622753504912623
68439280,0.0009413079242222011,0.000969887594692409,0.0009689123835414648,-0.00043760892003774643,-0.0009012439986690879,-9.81747055053711,0.0012023721092753533,0.0009865053479074799,6.188300073333371,1000.0,1000.0,1000.0,1000.0,2.799713,0.0032524047335110388,-0.002714399493490607,0.00011786818411163927
68479264,0.001142800785601139,0.0007729331264272332,0.0010415803408250213,-0.0008004177361726761,-0.0027444621082395315,-9.81835651397705,0.0012023721092753533,0.0009865053479074799,6.188300073333371,1000.0,1000.0,1000.0,1000.0,2.839697,-0.00034460277484246217,-4.769988539142338e-05,0.000741606128781068
68519248,0.0009137507295235991,0.0009660731302574277,0.0010282171424478292,-0.0005363410455174744,-0.0009709479054436088,-9.817561149597168,0.0012023721092753533,0.0009865053479074799,6.188300073333371,1000.0,1000.0,1000.0,1000.0,2.879681,-0.0024998701105703736,0.002089942396547988,-0.001842505246147038
68559232,0.0009428911725990474,0.0009400616399943829,0.0008942388813011348,-0.001564797363243997,-0.0011344659142196178,-9.817239761352539,0.0011995855429179653,0.000984756478107652,6.188276104883561,1000.0,1000.0,1000.0,1000.0,2.919665,-6.355908552125797e-05,0.0007511894879195565,-0.0013330207991634757
68599216,0.0009086680365726352,0.0010261442512273788,0.0009216181351803243,-0.0007167833973653615,-0.00023995681840460747,-9.81731128692627,0.0011995855429179653,0.000984756478107652,6.188276104883561,1000.0,1000.0,1000.0,1000.0,2.959649,-0.00016181144512863316,9.744149358274605e-05,0.0007363704381929508
68639200,0.0009299514349550009,0.0009478538413532078,0.0009531249525025487,-0.002056234749034047,-0.002137561794370413,-9.817585945129395,0.0011992475763323639,0.0009900369621879935,6.188243614318261,1000.0,1000.0,1000.0,1000.0,2.999633,-0.00016664170270444534,-0.002329886679033751,-0.0007270003499209258
68679184,0.0008953420328907669,0.0008398278732784092,0.0008634813711978495,0.000351331866113469,-0.000933185569010675,-9.817035675048828,0.0011992475763323639,0.0009900369621879935,6.188243614318261,1000.0,1000.0,1000.0,1000.0,3.039617,0.000557237468119854,0.0007180728168938617,0.00058215230937393
68719168,0.0009745126008056104,0.001005276688374579,0.0009996785083785653,-0.0009758664527907968,-0.00021851134079042822,-9.817995071411133,0.0011992475763323639,0.0009900369621879935,6.188243614318261,1000.0,1000.0,1000.0,1000.0,3.079601,0.0005746907405961461,0.002849976438386106,0.0012621027769195887
68759152,0.0009412989020347595,0.0010677347891032696,0.0009644092060625553,8.606484334450215e-05,-0.00021557524451054633,-9.818522453308105,0.0011957179776278706,0.0009908745315523099,6.188218047971797,1000.0,1000.0,1000.0,1000.0,3.119585,-0.0003241484246107526,-0.0006302685460814385,-0.0006585549595312969
68799136,0.0009485910995863378,0.0009548753732815385,0.0009470151853747666,-0.0016425850335508585,-0.0013284533051773906,-9.81747055053711,0.0011957179776278706,0.0009908745315523099,6.188218047971797,1000.0,1000.0,1000.0,1000.0,3.159569,-0.0002093664810237355,-0.0008419293266649867,0.0002541984919653909
68839120,0.0009245562832802534,0.0010004073847085238,0.0009847369510680437,-0.0016537249321117997,-0.0009649687563069165,-9.8176851272583,0.001197454363860089,0.0009959373334224562,6.188188753199806,1000.0,1000.0,1000.0,1000.0,3.199553,0.0018486384213028118,-0.0020868838157261805,0.0010979191483311106
68879104,0.0010964230168610811,0.0007879914483055472,0.0010348135838285089,-0.0008084547007456422,-0.0025489465333521366,-9.81460189819336,0.001197454363860089,0.0009959373334224562,6.188188753199806,1000.0,1000.0,1000.0,1000.0,3.239537,-8.974263367025892e-05,-0.0007572950033725157,0.00023279716085572617
68919088,0.0009173797443509102,0.0009398480178788304,0.0010033532744273543,-0.0007854538271203637,-0.00028202359681017697,-9.817970275878906,0.001197454363860089,0.0009959373334224562,6.188188753199806,1000.0,1000.0,1000.0,1000.0,3.279521,-0.0016192674241615676,0.002742546880539475,-0.0011591133292616837
68959072,0.0009669334394857287,0.001007307437248528,0.0009421216091141105,-0.0010432257549837232,-0.0006559744360856712,-9.816909790039062,0.0011919680959699304,0.0009942413887478073,6.188158925795597,1000.0,1000.0,1000.0,1000.0,3.319505,9.573751031195614e-05,0.00020236420889003723,-0.00047656940063368555
68999056,0.0009250356815755367,0.000956030678935349,0.0009652429725974798,-0.001929992693476379,-0.0007963237003423274,-9.817750930786133,0.0011919680959699304,0.0009942413887478073,6.188158925795597,1000.0,1000.0,1000.0,1000.0,3.359489,-0.00013304171476642875,9.450155832827455e-05,0.0004304570366064596
69039040,0.000956294359639287,0.0010148645378649235,0.0009765443974174559,-0.0018906041514128447,-0.0013486657990142703,-9.81747817993164,0.0011967322674961626,0.0010028492637447965,6.18813122892026,1000.0,1000.0,1000.0,1000.0,3.399473,0.0011606520822024999,0.0005922015161388041,-0.0005460018056816368
69079024,0.0010178507072851062,0.001003387849777937,0.0009215803002007306,-0.0017264140769839287,-0.0008855429477989674,-9.817451477050781,0.0011967322674961626,0.0010028492637447965,6.18813122892026,1000.0,1000.0,1000.0,1000.0,3.439457,0.0008222391319651755,-5.683903136276952e-05,0.0006863232164269657
69119841,0.0010215246584266424,0.001010659383609891,0.00103546935133636,0.0005284493672661483,-0.0014260349562391639,-9.819916725158691,0.0011967322674961626,0.0010028492637447965,6.18813122892026,1000.0,1000.0,1000.0,1000.0,3.480274,-0.0006418491500403412,-0.0002467404955456918,0.0005619289032806531
69159825,0.0009671954903751612,0.0009841516148298979,0.000970659195445478,-7.560296216979623e-05,0.0009121622424572706,-9.816408157348633,0.001191392941599744,0.0010036596553421291,6.188100868883834,1000.0,1000.0,1000.0,1000.0,3.520258,-0.0004115006776482591,4.934199827433608e-05,-0.0006842864899053447
69199809,0.0009886177722364664,0.001014605164527893,0.0009807483293116093,-0.0002531085629016161,-0.0001037375332089141,-9.818777084350586,0.001191392941599744,0.0010036596553421291,6.188100868883834,1000.0,1000.0,1000.0,1000.0,3.560242,0.0006161650091934413,-1.4284052843210535e-05,0.00040579841154686665
69239793,0.0010164689738303423,0.000983009347692132,0.0010031100828200579,-0.0007114551845006645,-0.0004975594347342849,-9.817218780517578,0.0011946328175059609,0.0010085830573739669,6.1880731720084965,1000.0,1000.0,1000.0,1000.0,3.600226,0.00034238635918267847,-0.00017552556251647193,-0.00037371606782910655
69279777,0.0010159977246075869,0.0010005687363445759,0.0009508630027994514,-0.0011318150209262967,-0.0013307014014571905,-9.818376541137695,0.0011946328175059609,0.0010085830573739669,6.1880731720084965,1000.0,1000.0,1000.0,1000.0,3.64021,-0.0007888314319031385,-0.00048179635657880776,-1.915070476482192e-05
69319761,0.0009533877018839121,0.0009444810566492379,0.0010015786392614245,-0.0015683580422773957,-0.0011944388970732689,-9.817750930786133,0.0011946328175059609,0.0010085830573739669,6.1880731720084965,1000.0,1000.0,1000.0,1000.0,3.680194,-0.00046583306861995924,-0.0005011341282810892,0.000282160995737548
69359745,0.000978745985776186,0.0009604940423741937,0.0009734268533065915,-5.411468373495154e-05,-0.000959846074692905,-9.818220138549805,0.001192285126572353,0.0010050703635006118,6.18804813829425,1000.0,1000.0,1000.0,1000.0,3.720178,-0.0007276175980258492,0.0005561223453642745,-0.0019845123440601405
69399729,0.0008952015778049827,0.000988953048363328,0.0008428811561316252,-0.0012908781645819545,-0.0011915025534108281,-9.8195219039917,0.001192285126572353,0.0010050703635006118,6.18804813829425,1000.0,1000.0,1000.0,1000.0,3.760162,-0.0004288673315815325,0.0009783804637468283,-0.001147641103575724
69439713,0.0009444503230042756,0.0010387331712991,0.0008816522895358503,-0.0007619108073413372,-0.0011485179420560598,-9.8172607421875,0.001195055698358741,0.0010085702487134505,6.188020441418913,1000.0,1000.0,1000.0,1000.0,3.800146,0.0009380657190070137,-0.0002412391933096364,0.0014001268776273022
69479697,0.0009702168172225356,0.000969661632552743,0.0009548465022817254,-0.0005912750493735075,-0.0016605386044830084,-9.817329406738281,0.001195055698358741,0.0010085702487134505,6.188020441418913,1000.0,1000.0,1000.0,1000.0,3.84013,-0.00017094497015291907,-6.563501900621813e-05,0.0014611361752811663
69519681,0.0009307801956310868,0.0010334844700992107,0.0009984964272007346,-0.001545036444440484,-0.0007408417295664549,-9.81775188446045,0.001195055698358741,0.0010085702487134505,6.188020441418913,1000.0,1000.0,1000.0,1000.0,3.880114,-0.0013784605956801456,0.0006683020932259261,0.00010999899866076523
69559665,0.0008599840803071856,0.001023104414343834,0.0009636429022066295,-0.0005671101389452815,-0.000623112078756094,-9.817928314208984,0.0011913831888125488,0.0010076966590550935,6.187995407704666,1000.0,1000.0,1000.0,1000.0,3.920098,0.00042933681864245135,-0.0006105224298191755,-0.0018436574911353584
69599649,0.0009651134023442864,0.0009846622124314308,0.0008510628249496222,0.0006118358578532934,-0.0008330861455760896,-9.81630802154541,0.0011913831888125488,0.0010076966590550935,6.187995407704666,1000.0,1000.0,1000.0,1000.0,3.960082,0.000377367876487629,-0.0020949597210612268,0.00010475748497728449
69639633,0.0008901614346541464,0.0008555746753700078,0.0009720201487652957,0.0008706552325747907,-0.0007923181401565671,-9.815214157104492,0.0011904995862926716,0.0010122905469168988,6.187966112932675,1000.0,1000.0,1000.0,1000.0,4.000066,0.0004564404158535606,0.0005613740494646285,0.0015455514046118328
69679617,0.00100161402951926,0.0010295541724190116,0.000974657479673624,-0.001391849247738719,-0.0007933103479444981,-9.81753158569336,0.0011904995862926716,0.0010122905469168988,6.187966112932675,1000.0,1000.0,1000.0,1000.0,4.04005,0.0011924702029697237,0.0010554309332596462,0.0007704835864068543
69719601,0.0009855208918452263,0.0009399753762409091,0.0010336341802030802,0.0007240960840135813,-0.00042457302333787084,-9.817319869995117,0.0011904995862926716,0.0010122905469168988,6.187966112932675,1000.0,1000.0,1000.0,1000.0,4.080034,0.00021978982166351302,-0.0002338773450392996,0.00021695834155951478
69759585,0.001019190181978047,0.0010108514688909054,0.0009920072043314576,-0.0021650181151926517,-0.00046366569586098194,-9.818235397338867,0.0011894107851302088,0.0010086333817558937,6.1879394813217745,1000.0,1000.0,1000.0,1000.0,4.120018,-0.0005405739529476174,0.00028076490863233883,-0.0005761952828519084
69799569,0.0009422922739759088,0.0009624275844544172,0.0009875569958239794,-0.0009603521903045475,-0.0007552878232672811,-9.817582130432129,0.0011894107851302088,0.0010086333817558937,6.1879394813217745,1000.0,1000.0,1000.0,1000.0,4.160002,-0.0007526365271089078,-0.0009353507008096392,-0.00019964482337117388
69839553,0.0009590033441781998,0.0009360533440485597,0.0009760420070961118,-0.0002808671852108091,-0.0017271587857976556,-9.81679916381836,0.0011924935761440031,0.001011535681187997,6.187912317078656,1000.0,1000.0,1000.0,1000.0,4.199986,-0.0011975377516801784,-0.001615793947797553,-0.0019411928821303128
69879537,0.0008465275750495493,0.0008332157740369439,0.0008323236834257841,1.6876556401257403e-05,-0.0001675858802627772,-9.818561553955078,0.0011924935761440031,0.001011535681187997,6.187912317078656,1000.0,1000.0,1000.0,1000.0,4.23997,0.0005907166268297129,0.0010438495245360738,0.0003045042125166715
69919521,0.0010062417713925242,0.0010195279028266668,0.0010003925999626517,-0.0011372107546776533,-0.0020747727248817682,-9.818151473999023,0.0011924935761440031,0.001011535681187997,6.187912317078656,1000.0,1000.0,1000.0,1000.0,4.279954,0.0010172372509934524,0.001859129455425719,0.0021798932058762314
69959505,0.0009278740035369992,0.000981886638328433,0.0010066453833132982,-0.0015187954995781183,-0.0007090277504175901,-9.818037033081055,0.001186488069863577,0.0010058083894169568,6.187878228616703,1000.0,1000.0,1000.0,1000.0,4.319938,0.000751209868753152,-0.0010491965818224432,-0.0005889311202243695
69999489,0.001066314522176981,0.0009356257505714893,0.000953296956140548,-0.0016331154620274901,-0.0005908695748075843,-9.8169527053833,0.001186488069863577,0.0010058083894169568,6.187878228616703,1000.0,1000.0,1000.0,1000.0,4.359922,-0.00018151097662834,0.0004855908310729129,-0.0004830272133540571
70039473,0.0009133589337579906,0.001020718365907669,0.0009680186631157994,-0.0014312762068584561,-0.0017468504374846816,-9.81844425201416,0.001190775785226037,0.0010105964877811075,6.18784946647693,1000.0,1000.0,1000.0,1000.0,4.399906,-0.003451053079693959,-0.0013718572055764367,0.0010214473489167201
70079457,0.0007903407095000148,0.0008259210735559464,0.0010349800577387214,-0.0009541896288283169,-0.00012412259820848703,-9.816705703735352,0.001190775785226037,0.0010105964877811075,6.18784946647693,1000.0,1000.0,1000.0,1000.0,4.43989,0.00047567118817918967,-0.00012001836206194591,0.0005892812338310471
70119441,0.0009513974073342979,0.001011120737530291,0.0010151423048228025,-0.001476649777032435,-0.0010438108583912253,-9.816884994506836,0.001190775785226037,0.0010105964877811075,6.18784946647693,1000.0,1000.0,1000.0,1000.0,4.479874,0.0018566895784827824,0.0017539730884184607,0.0002155171254654819
70159425,0.000938816461712122,0.0009661827934905887,0.0010522145312279463,-0.00025619278312660754,-0.00036028926842845976,-9.816414833068848,0.0011874415023397714,0.0010085904044736538,6.187823367498247,1000.0,1000.0,1000.0,1000.0,4.519858,0.0014440584924536749,0.00031897606018437344,-0.00040898801201362175
70199409,0.0010668758768588305,0.0010366286151111126,0.0009824363514780998,-0.0011368367122486234,-0.0006266822456382215,-9.817041397094727,0.0011874415023397714,0.0010085904044736538,6.187823367498247,1000.0,1000.0,1000.0,1000.0,4.559842,-0.00041460584323262106,0.00043138218087696197,-0.0003295260531475542
70239393,0.0009056612616404891,0.0010006795637309551,0.001025862991809845,-0.0011301622726023197,-0.000937508069910109,-9.817595481872559,0.0011895077928535096,0.0010128807855979472,6.18780366010618,1000.0,1000.0,1000.0,1000.0,4.599826,-0.0007631166429280887,8.350318702492199e-06,-0.001000447083497934
70279377,0.0010058509651571512,0.001037296373397112,0.0009024325991049409,-0.003539638128131628,0.002890097675845027,-9.818056106567383,0.0011895077928535096,0.0010128807855979472,6.18780366010618,1000.0,1000.0,1000.0,1000.0,4.63981,0.0008986506424956426,-0.00042449855431054076,-0.0007930648222077182
70319361,0.0009775245562195778,0.0009667332633398473,0.000962443184107542,-0.0004977937787771225,-0.0019914822187274694,-9.816720962524414,0.0011895077928535096,0.0010128807855979472,6.18780366010618,1000.0,1000.0,1000.0,1000.0,4.679794,0.0001276262361100313,-0.000959287262048367,0.001463784955769161
70359345,0.0010160569800063968,0.0009605840896256268,0.0010194885544478893,-8.053814963204786e-05,-0.001577749033458531,-9.817316055297852,0.0011868690787499995,0.0010086615348015968,6.1877812895530235,1000.0,1000.0,1000.0,1000.0,4.719778,0.0002897426658565426,0.0005244578087363876,0.0008644195766012806
70399329,0.0010006946977227926,0.0010086731053888798,0.0010315690888091922,-0.0006888803327456117,-0.00049585074884817,-9.817731857299805,0.0011868690787499995,0.0010086615348015968,6.1877812895530235,1000.0,1000.0,1000.0,1000.0,4.759762,-0.000324593891403456,-0.0002690262763350264,-0.0003729124806736532
70439313,0.0009900998556986451,0.0009390705963596702,0.0009896674891933799,-0.0005171737866476178,-0.0006384363514371216,-9.817687034606934,0.0011930428531188321,0.0010109496687147332,6.187754125309905,1000.0,1000.0,1000.0,1000.0,4.799746,-0.0010116470794772035,-0.00022598850664176488,-7.914023284913071e-05
70479297,0.0009197953040711582,0.0009906012564897537,0.0010252404026687145,-0.0011838888749480247,-0.0010988989379256964,-9.817728042602539,0.0011930428531188321,0.0010109496687147332,6.187754125309905,1000.0,1000.0,1000.0,1000.0,4.83973,-0.0031153865725215245,-0.001049999441091052,0.0021720131021216883
70519281,0.0007409686222672462,0.0008551042410545051,0.0011633590329438448,-0.0006862806621938944,-0.0011772920843213797,-9.820368766784668,0.0011930428531188321,0.0010109496687147332,6.187754125309905,1000.0,1000.0,1000.0,1000.0,4.879714,0.0011055823417845806,-0.0007416003056857964,-0.0013595908552648615
70559265,0.0010082065127789974,0.0009312969632446766,0.0009165166411548853,-0.0015005610184744,-0.0013026929227635264,-9.816995620727539,0.0011907298821076388,0.0010097363569690797,6.18772855896344,1000.0,1000.0,1000.0,1000.0,4.919698,0.0035104413731854005,0.0025822989365068202,-0.002648404898347719
70599249,0.0010216915979981422,0.0010616055224090815,0.0009515713900327682,-0.0006473022513091564,-0.0007297429256141186,-9.816812515258789,0.0011907298821076388,0.0010097363569690797,6.18772855896344,1000.0,1000.0,1000.0,1000.0,4.959682,-0.0004083278185805922,0.00036807348845490674,0.0014906192348212183
70639233,0.0009755533537827432,0.0009607310639694333,0.0010357184801250696,-0.0002656969300005585,-0.000950563931837678,-9.817265510559082,0.0011955618029955862,0.0010102078717206728,6.187699796823668,1000.0,1000.0,1000.0,1000.0,4.999666,3.29980254583466e-05,-0.0005340506304047574,0.0005785580037818011
70679217,0.0010243303840979934,0.0010188985615968704,0.0009978375164791942,-0.0006530258106067777,-0.0008055787766352296,-9.817227363586426,0.0011955618029955862,0.0010102078717206728,6.187699796823668,1000.0,1000.0,1000.0,1000.0,5.03965,-0.0009613923110099402,0.0017536120565079631,-0.0019499770214347848
70719201,0.0008986727334558964,0.0011009639129042625,0.0008797827176749706,0.0007357902359217405,-0.003848285647109151,-9.816874504089355,0.0011955618029955862,0.0010102078717206728,6.187699796823668,1000.0,1000.0,1000.0,1000.0,5.079634,9.395855468887111e-05,-0.00010244862767922955,0.0009240582631920378
70759185,0.0010318440617993474,0.0010107059497386217,0.0010717326076701283,-0.0009285124251618981,-0.0009441300062462687,-9.816871643066406,0.0011959181048211145,0.00100434449605897,6.187675295741639,1000.0,1000.0,1000.0,1000.0,5.119618,0.0007817272556011837,-0.0008227859007693371,0.0019123656487017304
70799169,0.0009611858986318111,0.001035167369991541,0.001032710773870349,-0.00109117291867733,-0.0008610656950622797,-9.818532943725586,0.0011959181048211145,0.00100434449605897,6.187675295741639,1000.0,1000.0,1000.0,1000.0,5.159602,-0.0009540894215799237,-0.00014606070014929091,-0.0012941734744466842
70839153,0.0009555474389344454,0.0009990257676690817,0.0009682401432655752,-0.000560012471396476,-0.0016302132280543447,-9.817723274230957,0.0011989089595609494,0.0010093846064442426,6.187649729395174,1000.0,1000.0,1000.0,1000.0,5.199586,6.65288641392963e-05,-0.0005468527054866522,-0.0003269842720361807
70879137,0.0009665060788393021,0.0009914366528391838,0.0010065624956041574,-0.0011822739616036415,-0.001457013189792633,-9.817253112792969,0.0011989089595609494,0.0010093846064442426,6.187649729395174,1000.0,1000.0,1000.0,1000.0,5.23957,0.0010909569099777864,-4.2381943581778006e-05,-0.005384434279439609
70919121,0.0010427890811115503,0.0009956365684047341,0.000537657702807337,0.00013369295629672706,-0.004510439001023769,-9.817782402038574,0.0011989089595609494,0.0010093846064442426,6.187649729395174,1000.0,1000.0,1000.0,1000.0,5.279554,-0.00021627558363221042,0.000412863281955363,0.0009851236081386446
70959105,0.0009492109529674053,0.0010244525037705898,0.001085340860299766,0.0002783105010166764,0.000332904834067449,-9.815755844116211,0.0011943463456367497,0.001003687093183438,6.187623097784273,1000.0,1000.0,1000.0,1000.0,5.319538,-0.0005775462409683772,-4.893147005359012e-05,0.006086355285663674
70999089,0.0009966038633137941,0.0009917236166074872,0.0010243713622912765,-0.00039962053415365517,-0.0015519090229645371,-9.817806243896484,0.0011943463456367497,0.001003687093183438,6.187623097784273,1000.0,1000.0,1000.0,1000.0,5.359522,0.000369213359365567,-0.0008569660145795379,-0.0011402625139063215
71039073,0.0009787362068891525,0.0009559226455166936,0.0009941563475877047,-0.001090066391043365,-0.0011082064593210816,-9.817584991455078,0.001200595931671379,0.0010015382940900292,6.187598064070026,1000.0,1000.0,1000.0,1000.0,5.399506,-3.419612732237162e-05,-0.0003109125289268589,2.9681772668167447e-05
71079057,0.0009938692674040794,0.0009668605634942651,0.0010267449542880058,0.00028641862445510924,-0.0015203391667455435,-9.817957878112793,0.001200595931671379,0.0010015382940900292,6.187598064070026,1000.0,1000.0,1000.0,1000.0,5.43949,-0.00020050372993228247,0.0017378300123912782,-0.0006393998874450104
71119041,0.0009627023246139288,0.001094893435947597,0.0009430248173885047,-0.0013300067512318492,-0.001117578474804759,-9.817748069763184,0.001200595931671379,0.0010015382940900292,6.187598064070026,1000.0,1000.0,1000.0,1000.0,5.479474,-1.1906774174967952e-05,0.0008940940704003416,-0.0013819544528778475
71159025,0.000992917106486857,0.0010383594781160355,0.0009162328206002712,-0.0007697724504396319,-0.002445251913741231,-9.816801071166992,0.001198402334775454,0.0010020157255325208,6.1875714324591256,1000.0,1000.0,1000.0,1000.0,5.519458,-0.0013732218944611258,-0.0038832679558521987,8.114329739572837e-05
71199842,0.0008481609402224422,0.0007769647054374218,0.0009508458315394819,-0.0009314653580076993,4.777946014655754e-05,-9.818878173828125,0.001198402334775454,0.0010020157255325208,6.1875714324591256,1000.0,1000.0,1000.0,1000.0,5.560275,1.2164852890033176e-05,0.00011018704846748988,0.0009541567271528304
71239826,0.0009880318539217114,0.001036520698107779,0.0009931545937433839,-0.001345930271781981,-0.001191064715385437,-9.818329811096191,0.00119624878932561,0.0010034906070307472,6.187543202951571,1000.0,1000.0,1000.0,1000.0,5.600259,0.0009520819094650107,0.0029593145157268963,8.024589307477174e-05
71279810,0.0009242970263585448,0.0010136151686310768,0.0009572629351168871,-0.0011876942589879036,-0.0005140454159118235,-9.816593170166016,0.00119624878932561,0.0010034906070307472,6.187543202951571,1000.0,1000.0,1000.0,1000.0,5.640243,-3.938159371329707e-05,7.73947600240868e-05,0.0010034561680093528
71319794,0.0009848825866356492,0.0010427098022773862,0.001073398976586759,-0.0013628446031361818,-0.0024392439518123865,-9.818113327026367,0.00119624878932561,0.0010034906070307472,6.187543202951571,1000.0,1000.0,1000.0,1000.0,5.680227,0.0008213752559257451,0.00045686259026488964,-5.617685641737952e-05
71359778,0.0009899807628244162,0.0010501495562493801,0.0009527705842629075,-0.0018984933849424124,-0.0008324500522576272,-9.81771183013916,0.001194504860937961,0.0010039993124108444,6.187517636605106,1000.0,1000.0,1000.0,1000.0,5.720211,0.0007022667525089302,0.003089336955565009,-0.0015684521827689056
71399762,0.0010410414543002844,0.0012897578999400139,0.0009479729924350977,-0.00175673165358603,-0.0016596161294728518,-9.819665908813477,0.001194504860937961,0.0010039993124108444,6.187517636605106,1000.0,1000.0,1000.0,1000.0,5.760195,0.0005267804958859288,-1.3966694147889147e-05,0.0016574014197005289
71439746,0.0010321063455194235,0.0010490326676517725,0.0010853096609935164,-0.0013294315431267023,-0.0011225498747080564,-9.817164421081543,0.001199220788676868,0.0010108489549322983,6.187494200787513,1000.0,1000.0,1000.0,1000.0,5.800179,-0.00040291452358493657,-0.0034901376955454692,0.0009903017956601583
71479730,0.0010088211856782436,0.0010106585687026381,0.0010271654464304447,-0.0003853169910144061,-0.0007217111415229738,-9.818572998046875,0.001199220788676868,0.0010108489549322983,6.187494200787513,1000.0,1000.0,1000.0,1000.0,5.840163,-0.000289690257998557,-0.00044928674324123605,-0.0008976316008129353
71519714,0.0010089403949677944,0.0010131041053682566,0.0010135278571397066,-0.0015761895338073373,-0.001057561137713492,-9.817342758178711,0.001199220788676868,0.0010108489549322983,6.187494200787513,1000.0,1000.0,1000.0,1000.0,5.880147,0.0008674519534941014,-0.0005491164337959979,-4.5324062496996526e-05
71559698,0.0010781895834952593,0.0009667468257248402,0.001023540971800685,-0.0016558796633034945,-0.0011424716794863343,-9.816291809082031,0.001200377339201046,0.0010111492107407454,6.187469699705485,1000.0,1000.0,1000.0,1000.0,5.920131,0.003203217775149819,-0.001311989962494143,0.003287010661167147
71599682,0.0012650953140109777,0.0009081868920475245,0.0012763835256919265,-0.0021321983076632023,-0.0005963238072581589,-9.818639755249023,0.001200377339201046,0.0010111492107407454,6.187469699705485,1000.0,1000.0,1000.0,1000.0,5.960115,-0.001513933452746771,0.0012463054471776886,-0.000580911990068933
71639666,0.0009571233531460166,0.001066411379724741,0.0009770866017788649,-0.0013995782937854528,-0.0010216874070465565,-9.818045616149902,0.001204812906817384,0.0010170511424211594,6.1874462638878915,1000.0,1000.0,1000.0,1000.0,6.000099,-0.003403731695499042,0.0005401939959774772,-0.0031899920698828677
71679650,0.000992905697785318,0.0009513851255178452,0.0010212862398475409,0.00022527581313624978,-0.0006969341193325818,-9.817619323730469,0.001204812906817384,0.0010170511424211594,6.1874462638878915,1000.0,1000.0,1000.0,1000.0,6.040083,-8.168346973428352e-05,-1.717230812657046e-05,0.0004904502041253138
71719634,0.0009505912894383073,0.0010650381445884705,0.0010163069237023592,0.00016885786317288876,-0.001827953732572496,-9.817472457885742,0.001204812906817384,0.0010170511424211594,6.1874462638878915,1000.0,1000.0,1000.0,1000.0,6.080067,-0.00023899584583397283,0.0011991194499490713,1.4559194097525305e-05
71759618,0.0009737936779856682,0.0010472763096913695,0.001022450509481132,-0.001684658695012331,-0.0014216640265658498,-9.818146705627441,0.0011990361359059739,0.0010124670073465491,6.187423893334735,1000.0,1000.0,1000.0,1000.0,6.120051,0.0007703008867909079,-0.0012609425251752099,0.0005879229968454788
71799602,0.0010121907107532024,0.0009642030927352607,0.0010633219499140978,-0.0006475279224105179,-0.00042344362009316683,-9.816825866699219,0.0011990361359059739,0.0010124670073465491,6.187423893334735,1000.0,1000.0,1000.0,1000.0,6.160035,0.0038393341647158536,-0.0027074627311793505,-0.00027092970062078496
71839586,0.0012808175524696708,0.0008307659300044179,0.0010007848031818867,-8.929731120588258e-05,-0.0017296484438702464,-9.817991256713867,0.001201770167249671,0.0010114627303397777,6.187401522781578,1000.0,1000.0,1000.0,1000.0,6.200019,-0.00039718459778089604,0.00022826169748105599,-0.00022630877688482702
71879570,0.0009804286528378725,0.0009824567241594195,0.0010452244896441698,-0.0005821940139867365,-0.0023406841792166233,-9.81735610961914,0.001201770167249671,0.0010114627303397777,6.187401522781578,1000.0,1000.0,1000.0,1000.0,6.240003,-0.0030038306237471085,0.0032789398510405694,2.9095095813764724e-05
71919554,0.00104060722514987,0.0010929761920124292,0.0010031114798039198,-0.00023691063688602298,1.7300662875641137e-06,-9.816450119018555,0.001201770167249671,0.0010114627303397777,6.187401522781578,1000.0,1000.0,1000.0,1000.0,6.279987,0.00021336985906272345,-2.8327903004143548e-05,-0.0005868952205198077
71959538,0.0009974914137274027,0.0009801913984119892,0.000998291652649641,-0.0008871949394233525,-0.0010433436837047338,-9.817058563232422,0.0012001318290380542,0.0010096628209536286,6.187377554331768,1000.0,1000.0,1000.0,1000.0,6.319971,-0.0004085571029592231,-0.0012529423200794369,0.0004966168620792345
71999522,0.001007935730740428,0.0009927809005603194,0.001042824937030673,-0.0011390940053388476,-0.0007734959363006055,-9.817493438720703,0.0012001318290380542,0.0010096628209536286,6.187377554331768,1000.0,1000.0,1000.0,1000.0,6.359955,0.0013727918123769209,0.0009297197676260503,0.0005027791527116524
72039506,0.0011072708293795586,0.0010545392287895083,0.0010384978959336877,-0.00011686331708915532,-0.001480968901887536,-9.81657886505127,0.0012035281396508809,0.001008635592387658,6.187354118514175,1000.0,1000.0,1000.0,1000.0,6.399939,-0.0005779989866301367,0.0005750292080121955,-0.00021393761085737248
72079490,0.0009617143077775836,0.0010387648362666368,0.0010257167741656303,-0.0010546429548412561,-0.0007477262988686562,-9.8178071975708,0.0012035281396508809,0.001008635592387658,6.187354118514175,1000.0,1000.0,1000.0,1000.0,6.439923,-0.0009438728008242768,-0.0005769464621494091,-0.0001560152816150514
72119474,0.001031791209243238,0.0010084019741043448,0.001026021665893495,-0.0012876864057034254,-0.0015305713750422,-9.816210746765137,0.0012035281396508809,0.001008635592387658,6.187354118514175,1000.0,1000.0,1000.0,1000.0,6.479907,2.8991007984762937e-05,-0.0014521001871036308,-0.000890381119240809
72159458,0.0009640326607041061,0.0009226432885043323,0.0009545147768221796,-0.00039962175651453435,-0.0020013004541397095,-9.817911148071289,0.001201400081484907,0.001008125651654516,6.187330150064365,1000.0,1000.0,1000.0,1000.0,6.519891,-0.0007042240404265439,-0.00045565138643632874,0.0002095440854313277
72199442,0.0009754758211784065,0.0009719644440338016,0.001042778487317264,-0.00038292602403089404,-0.0003281491808593273,-9.817621231079102,0.001201400081484907,0.001008125651654516,6.187330150064365,1000.0,1000.0,1000.0,1000.0,6.559875,-3.6695690992532073e-05,0.0009352728169096207,-0.000121653196075747
72239426,0.0009610981796868145,0.0009974351851269603,0.0009447864140383899,-0.0001943815586855635,-0.0013084213715046644,-9.81659984588623,0.0012016319377458255,0.001006957657860029,6.187301387924592,1000.0,1000.0,1000.0,1000.0,6.599859,0.004655984706668833,-0.0008762528341977171,-0.0015243436914218877
72279410,0.001347805606201291,0.0009018922573886812,0.000920879771001637,-1.470197457820177e-05,-0.0005291625275276601,-9.81859016418457,0.0012016319377458255,0.001006957657860029,6.187301387924592,1000.0,1000.0,1000.0,1000.0,6.639843,0.0006744301731734879,0.001135047932038705,0.0014529561821170368
72319394,0.001015031011775136,0.0010882026981562376,0.0010609764140099287,-0.001632604282349348,-0.0015764341223984957,-9.817880630493164,0.0012016319377458255,0.001006957657860029,6.187301387924592,1000.0,1000.0,1000.0,1000.0,6.679827,-0.004577267376117836,0.0010189113909006633,0.0015316720568940116
72359378,0.0009817706886678934,0.000983372563496232,0.0010433645220473409,-0.0003611900901887566,-0.0018628910183906555,-9.818626403808594,0.001203879239989905,0.0010053837530624814,6.187278484739217,1000.0,1000.0,1000.0,1000.0,6.719811,-0.0010650419521008678,-0.000942178280083493,-0.0008004324935732832
72399362,0.0009298617369495332,0.0010128585854545236,0.0009969674283638597,-0.0015559789026156068,-0.001897500827908516,-9.818155288696289,0.001203879239989905,0.0010053837530624814,6.187278484739217,1000.0,1000.0,1000.0,1000.0,6.759795,0.0001894631411876093,0.0014611601955494147,-0.00036252553437966274
72439346,0.0009969216771423817,0.0011002186220139265,0.0010143740801140666,-0.0010703649604693055,-0.001377408392727375,-9.817360877990723,0.0012048504875573757,0.0010070821034246387,6.187255581553842,1000.0,1000.0,1000.0,1000.0,6.799779,0.0007205592785995904,0.001456854016553268,-0.002058648354360478
72479330,0.0009874834213405848,0.001129360287450254,0.0008323414367623627,-0.0025707725435495377,-0.002686991821974516,-9.816112518310547,0.0012048504875573757,0.0010070821034246387,6.187255581553842,1000.0,1000.0,1000.0,1000.0,6.839763,0.0005032173406351956,-0.0006477203627838525,-0.00021251095250174844
72519314,0.0010371629614382982,0.0010484217200428247,0.0009973800042644143,-0.001345462747849524,-0.000776955799665302,-9.816459655761719,0.0012048504875573757,0.0010070821034246387,6.187255581553842,1000.0,1000.0,1000.0,1000.0,6.879747,0.0005502504816113918,-0.0013309383146962572,0.002289133746370334
72559298,0.001031485851854086,0.0010229278123006225,0.001015398884192109,-0.0001783131592674181,-0.00180028285831213,-9.817472457885742,0.00120076341953681,0.0010027273539048576,6.187232678368467,1000.0,1000.0,1000.0,1000.0,6.919731,-0.00035078617419544503,-0.001015748722249913,-7.018285645843045e-06
72599282,0.0010091112926602364,0.0009671943262219429,0.0009968187659978867,-0.0011121854186058044,0.0002233728300780058,-9.817291259765625,0.00120076341953681,0.0010027273539048576,6.187232678368467,1000.0,1000.0,1000.0,1000.0,6.959715,0.00019529788270773035,0.0003698116824107263,9.180109786932275e-06
72639266,0.0010471034329384565,0.0010525009129196405,0.0010161329992115498,-0.00040765327867120504,-0.0016336360713467002,-9.8175630569458,0.0012041528381800187,0.0010045245975291732,6.187207112022003,1000.0,1000.0,1000.0,1000.0,6.999699,-0.00015727015865853004,0.001260481772757267,-4.180400137031304e-05
72679250,0.000996534712612629,0.0010679925326257944,0.0009934757836163044,0.001016676309518516,-0.0012839052360504866,-9.819974899291992,0.0012041528381800187,0.0010045245975291732,6.187207112022003,1000.0,1000.0,1000.0,1000.0,7.039683,-0.0008999652062662289,0.0024582080471487466,-0.00045182270125723213
72719234,0.0009751350153237581,0.001249078894034028,0.0009800016414374113,-0.0006073672557249665,-0.0011966527672484517,-9.817474365234375,0.0012041528381800187,0.0010045245975291732,6.187207112022003,1000.0,1000.0,1000.0,1000.0,7.079667,0.0005504877727460621,-0.0007950111918214285,0.0010800284158181735
72759218,0.001040556118823588,0.0010044170776382089,0.0010798434959724545,-0.0005701639456674457,-0.0017168205231428146,-9.81723403930664,0.0012043179853765225,0.0010008896687229729,6.187180480411102,1000.0,1000.0,1000.0,1000.0,7.119651,-2.8415249434060597e-05,-0.0028359813566485505,-0.0001309301148226371
72799202,0.0009728627046570182,0.001022291136905551,0.0009695314220152795,-0.0004909879062324762,-0.0007456149905920029,-9.817716598510742,0.0012043179853765225,0.0010008896687229729,6.187180480411102,1000.0,1000.0,1000.0,1000.0,7.159635,1.804431665218542e-05,0.0007595034122762131,-0.0007908462228871805
72839186,0.0010419990867376328,0.0010651530465111136,0.0010166011052206159,-0.0006898560095578432,-0.0009121139300987124,-9.816347122192383,0.0012084900977014298,0.0010047091202629048,6.187155979329074,1000.0,1000.0,1000.0,1000.0,7.199619,0.0007801171697425519,-0.00012582398810556672,0.00039641667708414235
72879170,0.0010352471144869924,0.0010122292442247272,0.0010012320708483458,-0.0019896591547876596,-0.00195626774802804,-9.817298889160156,0.0012084900977014298,0.0010047091202629048,6.187155979329074,1000.0,1000.0,1000.0,1000.0,7.239603,0.0008493275692810706,0.0003695496431208277,-0.00019605051777905197
72919154,0.001109918113797903,0.0010947051923722029,0.0010009233374148607,0.001606012461706996,-0.0030800041276961565,-9.814909934997559,0.0012084900977014298,0.0010047091202629048,6.187155979329074,1000.0,1000.0,1000.0,1000.0,7.279587,0.0004839356162254435,0.00030133790443130984,5.464538234565934e-05
72959138,0.0010739464778453112,0.0010363266337662935,0.0010056019527837634,-0.0013927728869020939,-0.0008250327664427459,-9.817609786987305,0.0012085335301137388,0.0010025894494939186,6.187133076143699,1000.0,1000.0,1000.0,1000.0,7.319571,-0.0003567810508371596,-0.00039505625643783404,-0.0005755838578422896
72999122,0.0010813870467245579,0.001063113333657384,0.0009548950474709272,-0.0011493826750665903,-0.000938953016884625,-9.81682014465332,0.0012085335301137388,0.0010025894494939186,6.187133076143699,1000.0,1000.0,1000.0,1000.0,7.359555,-0.00028366335433256326,0.0013088221986349256,-0.0005304039169546984
73039106,0.0010512624867260456,0.0011409905273467302,0.0009631866123527288,-0.001024596393108368,-0.0011458253720775247,-9.817459106445312,0.0012168323717938055,0.0010114523273667695,6.1871053792683615,1000.0,1000.0,1000.0,1000.0,7.399539,-0.0011597349446880942,-0.0008296877245085287,0.0012183050932858125
73079090,0.0009886453626677394,0.0009967648657038808,0.0010523204691708088,-0.0007297215051949024,-0.00041837256867438555,-9.817180633544922,0.0012168323717938055,0.0010114523273667695,6.1871053792683615,1000.0,1000.0,1000.0,1000.0,7.439523,6.795406672121564e-05,-0.001710805026967098,0.0004050108379035147
73119074,0.001056696637533605,0.001004180870950222,0.0009955745190382004,-0.0004025995440315455,-0.0012908333446830511,-9.817161560058594,0.0012168323717938055,0.0010114523273667695,6.1871053792683615,1000.0,1000.0,1000.0,1000.0,7.479507,0.0009392492631327479,0.0030017139285946834,0.000324885046169893
73159058,0.0010637552477419376,0.0012368059251457453,0.0010783008765429258,0.001482269144617021,-0.0013943357625976205,-9.818609237670898,0.0012142813027378888,0.0010062367318305662,6.187083008715205,1000.0,1000.0,1000.0,1000.0,7.519491,0.00011601498402303081,0.00023930883720778978,0.00012203460881983659
73199042,0.001065974123775959,0.0010233179200440645,0.0010053333826363087,-0.0007547612185589969,2.7099491489934735e-05,-9.816872596740723,0.0012142813027378888,0.0010062367318305662,6.187083008715205,1000.0,1000.0,1000.0,1000.0,7.559475,-0.0002443880321090445,-0.0022130775703852103,-0.0006359766352781841
73239026,0.001044212025590241,0.0010598305379971862,0.001027443096973002,-0.0010514502646401525,-0.0011031394824385643,-9.81710433959961,0.001216058780713489,0.0010091846092881616,6.187068627645319,1000.0,1000.0,1000.0,1000.0,7.599459,-0.000599896926819856,0.0001172919892575685,3.712985003978542e-05
73279843,0.001017408212646842,0.001031455467455089,0.0010074651800096035,-0.0012512450339272618,-0.0026800823397934437,-9.817956924438477,0.001216058780713489,0.0010091846092881616,6.187068627645319,1000.0,1000.0,1000.0,1000.0,7.640276,1.2054202440004921e-05,-0.0009994932300381731,-0.0006368838592576073
73319827,0.0010440832702443004,0.0009795723017305136,0.0009762253612279892,-0.001052573323249817,-0.001165886176750064,-9.817913055419922,0.001216058780713489,0.0010091846092881616,6.187068627645319,1000.0,1000.0,1000.0,1000.0,7.68026,0.0013051944102446342,0.0006458089317419417,-0.00023576839524760106
73359811,0.001121781999245286,0.001083099516108632,0.000988611252978444,-0.00023460041848011315,-0.002107590436935425,-9.816604614257812,0.0012159647638449282,0.0010023133805977156,6.187049985517688,1000.0,1000.0,1000.0,1000.0,7.720244,-0.001059846295293215,0.0010319806004808075,0.0003507585144926356
73399795,0.0009593294817022979,0.0010620977263897657,0.0010042748181149364,-0.002271805889904499,-0.0013643355341628194,-9.81592845916748,0.0012159647638449282,0.0010023133805977156,6.187049985517688,1000.0,1000.0,1000.0,1000.0,7.760228,-0.001225961007870327,0.00018604207268149535,0.0015752899524594903
73439779,0.0010237443493679166,0.001097976928576827,0.0011145840398967266,-0.0011172363301739097,-0.0008471474866382778,-9.817525863647461,0.0012196610701918765,0.0010072860667141791,6.187026549700096,1000.0,1000.0,1000.0,1000.0,7.800212,0.000735566851037461,-0.0014848347174983654,0.00028566649912583654
